학교명,주소,위도,경도
경상고등학교,경상남도 창원시 의창구 금강로379번길 46. 경상고등학교 (소계동.경상고등학교),35.260853,128.5996445
마산가포고등학교,경상남도 창원시 마산합포구 가포로 262(가포동. 마산가포고등학교),35.1673007,128.5713668
마산고등학교,경상남도 창원시 마산합포구 심온길 33(완월동. 마산고등학교),35.2003482,128.5617446
마산용마고등학교,경상남도 창원시 마산합포구 허당로 51(산호동. 마산용마고등학교),35.2117361,128.581909
마산구암고등학교,경상남도 창원시 마산회원구 팔용로 220(구암동),35.2467216,128.5968516
마산내서여자고등학교,경상남도 창원시 마산회원구 내서읍 삼풍로 133. 마산내서여자고등학교 (내서읍),35.2370095,128.5029991
마산여자고등학교,경상남도 창원시 마산합포구 고운로 157(완월동.마산여자고등학교),35.1956186,128.5611894
진해고등학교,경상남도 창원시 진해구 여좌로 100(여좌동. 진해고등학교),35.1610225,128.6646126
진해여자고등학교,경상남도 창원시 진해구 여좌남로 23(여좌동.진해여자고등학교),35.1562718,128.6581534
창원남산고등학교,경상남도 창원시 성산구 가음로92번길 34(가음동.창원남산고등학교),35.2035861,128.7006319
창원명지여자고등학교,경상남도 창원시 의창구 명지로109번길 54(명서동. 명지여자고등학교),35.2523714,128.6494294
창원봉림고등학교,경상남도 창원시 의창구 창이대로333번길 39(봉곡동. 창원봉림고등학교),35.2480946,128.6759548
창원사파고등학교,경상남도 창원시 성산구 창이대로719번길 26. 창원사파고등학교 (사파동),35.2210174,128.7042388
창원신월고등학교,경상남도 창원시 의창구 신월로 66(신월동. 창원신월고등학교),35.2262364,128.693676
창원여자고등학교,경상남도 창원시 성산구 두대로 153(중앙동),35.2205596,128.6738796
창원용호고등학교,경상남도 창원시 의창구 용호로 29(용호동. 창원용호고등학교),35.2331473,128.6767028
창원중앙고등학교,경상남도 창원시 의창구 용호로 16(용호동),35.2310185,128.6772894
창원중앙여자고등학교,경상남도 창원시 성산구 단정로 121(상남동),35.2148195,128.6917643
웅천고등학교,경상남도 창원시 진해구 웅천중로 71(성내동. 웅천고등학교),35.1125009,128.7491461
창원명곡고등학교,경상남도 창원시 의창구 서곡길25번길 16. 창원명곡고등학교 (명곡동),35.2545861,128.6491105
창원성민여자고등학교,경상남도 창원시 의창구 팔용로 481(팔용동),35.2588367,128.6153659
태봉고등학교,경상남도 창원시 마산합포구 진동면 태봉1길 85-32. 태봉고등학교,35.1477609,128.5094674
합포고등학교,경상남도 창원시 마산합포구 무학로 458(교방동. 합포고등학교),35.2094213,128.5642265
마산제일고등학교,경상남도 창원시 마산회원구 내서읍 함마대로 2610. 마산제일고등학교 (내서읍),35.2614788,128.5053038
마산제일여자고등학교,경상남도 창원시 마산합포구 고운로 65(문화동.마산제일여자중고등학교),35.1883997,128.5568809
마산중앙고등학교,경상남도 창원시 마산합포구 고운로 103(신월동),35.1925801,128.5576388
마산무학여자고등학교,경상남도 창원시 마산회원구 회원동33길 17. 마산무학여자고등학교 (회원동),35.2230958,128.5746872
성지여자고등학교,경상남도 창원시 마산합포구 완월남로 20(완월동. 성지여자중고등학교) 성지여자고등학교,35.1979358,128.5597884
진해세화여자고등학교,경상남도 창원시 진해구 병암북로4번길 41진해세화여자고등학교(석동),35.1613763,128.6942364
진해중앙고등학교,경상남도 창원시 진해구 병암북로 9. 진해중앙고등학교 (경화동),35.1612441,128.6900669
창신고등학교,경상남도 창원시 마산회원구 봉덕2길 106(봉암동. 창신고등학교),35.2259451,128.5975607
마산삼진고등학교,경상남도 창원시 마산합포구 진동면 삼진의거대로 661-13(진동면. 삼진고등학교),35.1185745,128.4887147
창원경일고등학교,경상남도 창원시 성산구 두대로 165(중앙동),35.2265822,128.6612292
창원경일여자고등학교,경상남도 창원시 성산구 두대로 163. 창원경일여자고등학교(내동),35.227208,128.66179
창원고등학교,경상남도 창원시 의창구 태복산로 45(도계동. 창원중고등학교),35.2556765,128.64193
창원남고등학교,경상남도 창원시 성산구 창원대로 813. 창원남고등학교 (외동),35.2139599,128.6801498
창원대산고등학교,경상남도 창원시 의창구 대산면 진산대로 378(대산면.창원대산고등학교),35.333113,128.7099771
창원문성고등학교,경상남도 창원시 의창구 원이대로 406(두대동.창원문성고등학교),35.2356514,128.6602622
창원대암고등학교,경상남도 창원시 성산구 대암로 203(대방동. 창원대암고등학교),35.2075538,128.7114322
창원토월고등학교,경상남도 창원시 성산구 비음로91번길 8(토월동. 창원토월고등학교),35.225794,128.7038292
진해용원고등학교,경상남도 창원시 진해구 용재로77번길 8(용원동),35.1013113,128.8190862
창원과학고등학교,경상남도 창원시 의창구 평산로159번길 30(서상동),35.2568899,128.6200811
창원기계공업고등학교,경상남도 창원시 성산구 두대로 219(중앙동. 창원기계공업고등학교),35.224014,128.6655953
마산공업고등학교,경상남도 창원시 마산회원구 학교단지로 53. 마산공업고등학교 (합성동),35.2438437,128.5964624
창원공업고등학교,경상남도 창원시 의창구 사화로 410(팔용동.창원공업고등학교),35.235754,128.6443718
한일여자고등학교,경상남도 창원시 마산회원구 양덕서8길 50. 한일여자고등학교 (양덕동),35.2298173,128.5788533
경남관광고등학교,경상남도 창원시 의창구 사림로29번길 12(봉곡동),35.248546,128.6752484
창원천광학교,경상남도 창원시 성산구 원이대로878번길 20(가음동. 창원천광학교),35.2107938,128.692982
경남혜림학교,경상남도 창원시 마산회원구 합성북2길 48(합성동. 경남혜림학교),35.2433935,128.5805049
창원동백학교,경상남도 창원시 마산합포구 구산면 반동길 370(구산면. 창원동백학교),35.073504,128.5837785
경남전자고등학교,경상남도 창원시 마산합포구 노산북6길 63. 경남전자고등학교 (상남동),35.215122,128.5732926
창원예술학교,경상남도 창원시 마산회원구 구암북12길 24(구암동),35.2567086,128.597716
창의나라유치원,경상남도 창원시 진해구 냉천북로 17(자은동),35.1479764,128.7224599
가온유치원,경상남도 창원시 진해구 조천북로68번길 5(경화동),35.159356,128.6803906
명지숲유치원,경상남도 창원시 마산합포구 현동9길 22. 명지숲유치원 (현동),35.1524162,128.5508169
창원남산유치원,경상남도 창원시 성산구 가음로83번길 7(남양동),35.2059301,128.7045342
석동초등학교병설유치원,경상남도 창원시 진해구 석동로 85(석동. 석동초등학교),35.1576773,128.7067063
창원한들초등학교병설유치원,경상남도 창원시 의창구 소봉로 43(봉림동),35.2539675,128.6703615
진해냉천초등학교병설유치원,경상남도 창원시 진해구 냉천로 205(자은동),35.1522967,128.7090933
감계초등학교병설유치원,경상남도 창원시 의창구 북면 감계로140번길 51(북면),35.2972897,128.5885464
진해신항초등학교병설유치원,경상남도 창원시 진해구 신항동로 158. 진해신항초등학교 (용원동),35.089023,128.810752
하늘땅유치원,경상남도 창원시 의창구 북면 무동로195번길 23-13. 하늘땅유치원 (북면),35.3184577,128.6051989
하늘빛유치원,경상남도 창원시 성산구 동산로 115. 유치원 제B동 (상남동. 대동아파트),35.2189019,128.6895637
현동세종유치원,경상남도 창원시 마산합포구 현동5길 31. 현동세종유치원 (현동),35.1401325,128.5590842
지예슬유치원,경상남도 창원시 마산회원구 회성동5길 6. 지예슬유치원 (회성동),35.2326966,128.5653127
한사랑유치원,경상남도 창원시 마산합포구 월영마을로 42(월영동),35.1709038,128.5572737
하늘숲유치원,경상남도 창원시 진해구 진해대로979번길 33-2(자은동),35.1409131,128.7104125
삼학사금강유치원,경상남도 창원시 마산회원구 무학로 559(회원동.삼학사),35.2178607,128.5603657
감천초등학교병설유치원,경상남도 창원시 마산회원구 내서읍 감천로 53(내서읍. 감천초등학교),35.2070132,128.5151654
교동초등학교병설유치원,경상남도 창원시 마산회원구 무학로 589(회원동. 마산교동초등학교),35.221318,128.5623828
경화초등학교병설유치원,경상남도 창원시 진해구 경화로38번길 5(경화동. 경화초등학교),35.1575616,128.6868026
교방초등학교병설유치원,경상남도 창원시 마산합포구 교방동1길 63(교방동. 교방초등학교),35.2135134,128.5650217
남정초등학교병설유치원,경상남도 창원시 성산구 원이대로878번길 30. 11 (가음동),35.2099462,128.6927272
진해남산초등학교병설유치원,경남 창원시 진해구 태평로37번길 17(제황산동. 진해남산초등학교),35.147884,128.662681
구암초등학교병설유치원,경상남도 창원시 마산회원구 구암북19길 153(구암동. 구암초등학교),35.2581475,128.5943233
구산초등학교구서분교장병설유치원,경상남도 창원시 마산합포구 구산면 해양관광로 678. 739 (구산면),35.0971879,128.5578294
내동초등학교병설유치원,경상남도 창원시 성산구 두대로 185(중앙동. 내동초등학교),35.2259146,128.6624112
대암초등학교병설유치원,경상남도 창원시 성산구 창이대로899번길 23(대방동. 대암초등학교),35.205867,128.709421
성원유치원,경상남도 창원시 마산합포구 교방남1길 34(교방동),35.2100467,128.5653193
대산초등학교병설유치원,경상남도 창원시 의창구 대산면 진산대로 442-7. 대산초병설유치원 (대산면. 대산초등학교),35.3400899,128.7105173
대야초등학교병설유치원,경상남도 창원시 진해구 여좌로84번길 7(여좌동. 대야초등학교),35.1593271,128.6634584
내서초등학교병설유치원,경상남도 창원시 마산회원구 북성로 480. 내서초등학교 (두척동. 내서초등학교),35.2381135,128.5455213
덕산초등학교병설유치원,경상남도 창원시 진해구 덕산로46번길 15(자은동),35.1457667,128.705059
대원초등학교병설유치원,경상남도 창원시 의창구 두대로55번길 23(대원동. 대원초등학교),35.2340125,128.6513464
도천초등학교병설유치원,경상남도 창원시 진해구 충장로 10(도천동. 도천초등학교),35.15255,128.6539317
노벨유치원,경상남도 창원시 의창구 우곡로71번길 18(명서동),35.2464277,128.641103
동부초등학교병설유치원,경상남도 창원시 진해구 석동로 27. 동부초등학교병설유치원 (석동),35.1556338,128.7017604
무학초등학교병설유치원,경상남도 창원시 마산합포구 자산동8길 6(자산동. 무학초등학교),35.2035979,128.5675217
반동초등학교병설유치원,경상남도 창원시 마산합포구 구산면 해양관광로 1460-14(구산면),35.0877125,128.5843272
도계초등학교병설유치원,경상남도 창원시 의창구 하남천동길 10(도계동. 도계초등학교),35.2592957,128.639503
봉덕초등학교병설유치원,경상남도 창원시 마산회원구 봉덕1길 14(봉암동. 봉덕초등학교)봉덕초등학교 병설유치원,35.2221518,128.5945742
명서초등학교병설유치원,경상남도 창원시 의창구 명서로 21(명서동),35.2500161,128.6433443
북성초등학교병설유치원,경상남도 창원시 마산회원구 석전북1길 3(석전동. 북성초등학교),35.2317331,128.5699673
봉강초등학교병설유치원,경상남도 창원시 의창구 동읍 동읍로 1131-3(동읍.봉강초등학교),35.350797,128.6552481
산호초등학교병설유치원,경상남도 창원시 마산합포구 회원동북로 53(산호동. 산호초등학교),35.2193741,128.5793257
삼계초등학교병설유치원,경상남도 창원시 마산회원구 내서읍 삼계로 36(내서읍. 삼계초등학교),35.2323338,128.5000496
사화초등학교병설유치원,경상남도 창원시 의창구 반계로80번길 7(팔용동. 사화초등학교),35.2521703,128.6164071
상남초등학교병설유치원,경상남도 창원시 마산합포구 합포서13길 20. 상남초등학교병설유치원 (상남동. 마산상남초등학교),35.2124304,128.5771039
상북초등학교병설유치원,경상남도 창원시 의창구 지귀로60번길 13-13(봉곡동),35.2469044,128.6532816
석전초등학교병설유치원,경상남도 창원시 마산회원구 석전동로 8(석전동. 석전초등학교),35.2322234,128.576208
다은유치원,경상남도 창원시 성산구 가음로57번길 16-19. 다은유치원 (남양동),35.2075789,128.7038983
성호초등학교병설유치원,경상남도 창원시 마산합포구 성호동4길 21(성호동.성호초등학교),35.2087641,128.5714657
소답초등학교병설유치원,경상남도 창원시 의창구 의창대로317번길 41소답초등학교 (소답동),35.2651536,128.6288915
양덕초등학교병설유치원,경상남도 창원시 마산회원구 양덕동12길 86. 양덕1동42번지 (양덕동. 양덕초등학교),35.2334559,128.5881301
신방초등학교병설유치원,경상남도 창원시 의창구 동읍 동읍로 121-11(동읍. 신방초등학교),35.2870345,128.6781202
창원신월초등학교병설유치원,경상남도 창원시 의창구 신월로72번길 12(신월동. 창원신월초등학교),35.2258476,128.6932316
안민초등학교병설유치원,경상남도 창원시 성산구 안민로79번길 6. 안민초등학교 (안민동),35.1871108,128.6878489
완월초등학교병설유치원,경상남도 창원시 마산합포구 고운로 201(완월동. 완월초등학교),35.2001538,128.5631056
양곡초등학교병설유치원,경상남도 창원시 성산구 양곡길 102. 양곡초등학교 (신촌동. 양곡초등학교),35.2020992,128.626794
온천초등학교병설유치원,경상남도 창원시 의창구 북면 신리길30번길 17온천초등학교병설유치원,35.3490814,128.6054864
용마초등학교병설유치원,경상남도 창원시 마산합포구 산호남로 50.(산호동. 용마초등학교),35.215458,128.5845754
외동초등학교병설유치원,경상남도 창원시 성산구 토월로43번길 14(상남동. 외동초등학교),35.2163721,128.6813594
우산초등학교병설유치원,경상남도 창원시 마산합포구 진동면 미더덕로 382. 우산초등학교 (진동면),35.1049413,128.4790049
월성초등학교병설유치원,경상남도 창원시 마산합포구 완월남1길 17. 월성초등학교병설유치원(완월동. 월성초등학교),35.1955988,128.5603282
중리초등학교병설유치원,경상남도 창원시 마산회원구 내서읍 호계안길 22(내서읍. 중리초등학교),35.2555631,128.5201081
월영초등학교병설유치원,경상남도 창원시 마산합포구 반월북1길 41(장군동1가. 월영초등학교병설유치원),35.1913322,128.5625275
용지초등학교병설유치원,경상남도 창원시 성산구 원이대로538번길 24(중앙동),35.2292478,128.6718521
월포초등학교병설유치원,경상남도 창원시 마산합포구 월영북15길 35(대내동. 월포초등학교),35.1827391,128.5575788
웅동초등학교병설유치원,경상남도 창원시 진해구 마천로 29(마천동. 웅동초등학교),35.1266388,128.7829203
마산중앙초등학교병설유치원,경상남도 창원시 마산회원구 팔용로 280(구암동. 마산중앙초등학교),35.2484544,128.6025728
진동초등학교병설유치원,경상남도 창원시 마산합포구 진동면 삼진의거대로 661-22(진동면. 진동초등학교),35.1186425,128.4901152
우암초등학교병설유치원,경상남도 창원시 의창구 대산면 우암로 35(대산면.우암초등학교),35.334141,128.730614
웅천초등학교병설유치원,경상남도 창원시 진해구 웅천동로 33. 웅천초등학교 병설유치원 (남문동. 웅천초등학교),35.1044033,128.7555894
진전초등학교병설유치원,경상남도 창원시 마산합포구 진전면 팔의사로 727(진전면) 727,35.1102363,128.415113
팔룡초등학교병설유치원,경상남도 창원시 마산회원구 학교단지로 31(합성동.팔용초등학교),35.2421901,128.5939671
하북초등학교병설유치원,경상남도 창원시 마산합포구 진북면 지산5길 36(진북면.하북초등학교),35.1161065,128.4696443
유목초등학교병설유치원,경상남도 창원시 성산구 반송로29번길 15(반지동. 유목초등학교),35.2440393,128.6631228
제황초등학교병설유치원,경상남도 창원시 진해구 제황로 32(제황산동. 제황초등학교),35.1481897,128.6696525
일동초등학교병설유치원,경상남도 창원시 의창구 대산면 대산북로 461(대산면. 일동초등학교),35.368525,128.6879782
자여초등학교병설유치원,경상남도 창원시 의창구 동읍 자여로 135(동읍. 자여초등학교),35.2720089,128.7057782
합성초등학교병설유치원,경상남도 창원시 마산회원구 합성북16길 75(합성동. 합성초등학교),35.2418715,128.5819638
자은초등학교병설유치원,경상남도 창원시 진해구 자은로88번길 41(자은동. 자은초등학교),35.1491788,128.7115124
해군유치원,경상남도 창원시 진해구 충장로 2(현동),35.1527827,128.6518896
합포초등학교병설유치원,경상남도 창원시 마산합포구 허당로 73(산호동. 합포초등학교),35.2123194,128.5842699
창원초등학교병설유치원,경상남도 창원시 의창구 읍성로 5-1(서상동.창원초등학교),35.2657375,128.619111
진해중앙초등학교병설유치원,경상남도 창원시 진해구 태백서로14번길 23(태백동. 중앙초등학교),35.1547723,128.6752629
창원상남초등학교병설유치원,경상남도 창원시 성산구 토월로 140(상남동. 창원상남초등학교),35.2215499,128.6894675
창원한별유치원,경상남도 창원시 의창구 봉곡로35번길 3창원한별유치원,35.2484832,128.6620394
현동초등학교병설유치원,경상남도 창원시 마산합포구 현동6길 12(현동),35.1473544,128.556802
풍호초등학교병설유치원,경상남도 창원시 진해구 풍호로 80(자은동. 풍호초등학교),35.1402297,128.7120795
장복초등학교병설유치원,경상남도 창원시 진해구 진해대로 728번길 21(석동.장복초등학교),35.157858,128.695151
장천초등학교병설유치원,경상남도 창원시 진해구 충장로 719장천초등학교병설유치원(장천동. 장천초등학교),35.1263596,128.7072607
토월유치원,경상남도 창원시 성산구 비음로4번길 33-11토월유치원 (사파동),35.2274309,128.6996198
평산초등학교병설유치원,경상남도 창원시 의창구 사화로104번길 17(팔용동. 평산초등학교),35.2507321,128.6168214
회원초등학교병설유치원,경상남도 창원시 마산회원구 회원남로 51(회원동) 회원초등학교,35.2198372,128.5667852
하천초등학교병설유치원,경상남도 창원시 의창구 북면 하천로 145(북면.하천초등학교),35.3696842,128.6041305
광려초등학교병설유치원,경상남도 창원시 마산회원구 내서읍 삼계1길 47(내서읍. 광려초등학교),35.2284544,128.5032369
호계초등학교병설유치원,경상남도 창원시 마산회원구 내서읍 광려천북로 182(내서읍. 호계초등학교),35.2657009,128.5223298
화양초등학교병설유치원,경상남도 창원시 의창구 동읍 백월로 524(동읍. 화양초등학교),35.305393,128.6522888
명도초등학교병설유치원,경상남도 창원시 의창구 도계두리길 233(명곡동),35.2557589,128.643693
명곡초등학교병설유치원,경상남도 창원시 의창구 우곡로159번길 22-11(명서동. 명곡초등학교),35.2435932,128.6449329
동산초등학교병설유치원,경상남도 창원시 성산구 단정로 126(상남동)동산초등학교,35.2140712,128.6902599
중동초등학교병설유치원,경상남도 창원시 의창구 의창대로238번길 14(서상동. 중동초등학교),35.2598701,128.6231261
사파초등학교병설유치원,경상남도 창원시 성산구 원이대로773번길 27(사파동) 사파초등학교,35.2193185,128.6972552
의창초등학교병설유치원,경상남도 창원시 의창구 중동로 49(중동),35.2550279,128.6273054
곰내유치원,경상남도 창원시 진해구 웅천중로 80(성내동),35.113424,128.7499345
삼정자초등학교병설유치원,경상남도 창원시 성산구 외리로34번길 8(삼정자동)삼정자초등학교,35.2006842,128.709453
창원진달래유치원,경상남도 창원시 의창구 북면 동전무동길26번길 19(북면),35.3178123,128.5983918
용호유치원,경상남도 창원시 의창구 용호로 29(용호동),35.2331473,128.6767028
가람유치원,경상남도 창원시 의창구 반계로68번길 7(팔용동),35.251273,128.6151769
신비하나름유치원,경상남도 창원시 성산구 반송로 105(반림동),35.2387819,128.6689378
숲속나라유치원,경상남도 창원시 진해구 자은로28번길 3-1(자은동),35.1496552,128.7055579
꽃누리별누리유치원,경상남도 창원시 의창구 도계로95번길 6-17(도계동),35.2562679,128.6411969
대자유치원,경상남도 창원시 마산합포구 문신길 214. 대자유치원 (추산동),35.2062366,128.5720212
다나유치원,경상남도 창원시 성산구 원이대로 774. 다나유치원 (상남동. 성원아파트),35.218669,128.6922333
우성예닮유치원,경상남도 창원시 진해구 진해대로901번길 33(자은동),35.1495099,128.7105294
국제예술유치원,경상남도 창원시 성산구 동산로 115(상남동. 대동아파트),35.2187846,128.6866875
새싹유치원,경상남도 창원시 마산회원구 합성서1길 94(합성동),35.2406344,128.5835518
아이뜰유치원,경상남도 창원시 성산구 대암로 256(대방동. 대방그린빌아파트),35.2050262,128.7107569
도솔유치원,경상남도 창원시 성산구 원이대로 774. 유치원동 (상남동. 성원아파트),35.218669,128.6922333
성심유치원,경상남도 창원시 진해구 중원동로 64(중앙동),35.1501193,128.6623035
동성아이별꽃유치원,경상남도 창원시 성산구 창이대로 737(사파동. 사파동성아파트),35.219156,128.7035237
동화유치원,경상남도 창원시 성산구 정동로162번길 31(남산동. 대우아파트),35.2041279,128.6930655
대광유치원,경상남도 창원시 진해구 진해대로 303(태백동),35.1721013,128.6663485
하늘빛사관유치원,경상남도 창원시 의창구 태복산로23번길 21(도계동),35.255128,128.639256
나라유치원,경상남도 창원시 성산구 대암로 80(대방동),35.2151382,128.7085075
진해유치원,경상남도 창원시 진해구 청안로 289(안골동. 진해유치원),35.0973648,128.8027804
샛별유치원,경상남도 창원시 진해구 충장로 319(경화동)샛별유치원,35.1537727,128.6869008
룸비니유치원,경상남도 창원시 성산구 대정로 77(남양동),35.2107921,128.7009957
뜰에유치원,경상남도 창원시 진해구 용원북로11번길 8(용원동.용원유아원),35.1040496,128.8152262
리라자연생태유치원,경상남도 창원시 의창구 북면 무릉산길113번길 15(북면),35.3333213,128.573752
리라유치원(창원),경상남도 창원시 성산구 원이대로878번길 12. 리라유치원 (가음동),35.2097106,128.6938153
바른뜰유치원,경상남도 창원시 진해구 경화로7번길 24-1(경화동),35.1540781,128.6837732
리라아름유치원,경상남도 창원시 성산구 원이대로883번길 3-32(가음동),35.2090663,128.6959253
개나리유치원,경상남도 창원시 마산회원구 양덕북12길 38(양덕동.개나리유치원),35.235039,128.5856858
명곡유치원,경상남도 창원시 의창구 원이대로219번길 12(명서동),35.2470313,128.6445756
진해배화유치원,경상남도 창원시 진해구 남의로116번길 25(두동),35.1143713,128.7963023
바른나무유치원,경상남도 창원시 의창구 팔용로 448(팔용동),35.2550521,128.6143977
흥국유치원,경상남도 창원시 진해구 충무로 29-1(현동),35.1501525,128.6564677
행복가득동화유치원,경상남도 창원시 성산구 대정로 84(남양동. 피오르빌 아파트),35.2094608,128.7018979
이레유치원,경상남도 창원시 성산구 대정로 32(가음동),35.2069747,128.6984961
보람유치원,경상남도 창원시 성산구 충혼로201번길 7-20(반지동),35.2408305,128.664908
고요숲속샘터유치원,경상남도 창원시 의창구 동읍 동읍로 132(동읍),35.2871301,128.6790294
천사유치원,경상남도 창원시 마산회원구 구암서2길 110-1(구암동),35.2492399,128.5945218
꽃무지풀무지유치원,경상남도 창원시 성산구 창이대로707번길 8-15(사파동),35.2212787,128.7024644
성모유치원,경상남도 창원시 의창구 우곡로 177(명서동),35.2413218,128.6447381
미래로유치원,경상남도 창원시 진해구 충장로 575-1(풍호동),35.1382641,128.7050722
살레시오성미유치원,경상남도 창원시 의창구 의안로66번길 33(소답동),35.267812,128.6276502
푸른하늘유치원,경상남도 창원시 의창구 창이대로478번길 12-10(용호동.성심유치원),35.2377905,128.6857597
세화유치원,경상남도 창원시 마산회원구 양덕동14길 5(양덕동),35.231977,128.5867626
성아유치원,경상남도 창원시 성산구 원이대로773번길 25(사파동),35.2192576,128.6962353
숭림사부설참좋은유치원,경상남도 창원시 진해구 용원중로 11(용원동),35.0983523,128.8156806
명성유치원,경상남도 창원시 성산구 비음로91번길 21(사파동),35.2268462,128.7030155
성주유치원,경상남도 창원시 성산구 안민안길11번길 13(안민동),35.1867741,128.6899938
숲과샘유치원,경상남도 창원시 성산구 양곡길 104(양곡동),35.2011222,128.6271071
반달유치원,경상남도 창원시 마산합포구 자산서14길 6565(자산동. 반달유치원),35.2002926,128.5583838
피노키오유치원,경상남도 창원시 성산구 가음로 76(가음동),35.2064306,128.7024738
석동으뜸유치원,경상남도 창원시 진해구 진해대로823번길 7(석동.석동유치원),35.157057,128.705015
원흥사금강유치원,경상남도 창원시 의창구 원이대로114번길 17(도계동),35.2516785,128.6362982
은아유치원,경상남도 창원시 의창구 원이대로 663(신월동. 은아아파트),35.2249865,128.687121
자연유치원,경상남도 창원시 성산구 대암로 213(대방동),35.2069945,128.7107267
국제유치원,경상남도 창원시 진해구 진해대로802번길 11(석동. 국제유치원),35.1562726,128.7020382
이화유치원,경상남도 창원시 마산회원구 회원북13길 98(회원동),35.2210683,128.5655144
창원유치원,경상남도 창원시 의창구 의안로59번길 10(소답동),35.2672764,128.6229629
창원해돋이유치원,경상남도 창원시 의창구 신월로17번길 7(신월동. 창원 해돋이유치원),35.230725,128.690937
솔빛길유치원,경상남도 창원시 마산회원구 삼호로 108(양덕동),35.2252157,128.5816209
이삭유치원,경상남도 창원시 진해구 청안로 232(청안동),35.1005408,128.8001482
창원산새소리유치원,경상남도 창원시 의창구 반계로80번길 8. 1층 창원산새소리유치원 (팔용동. 공원빌딩),35.2519627,128.6156996
글로리아유치원,경상남도 창원시 진해구 태평로 80(대죽동),35.1447476,128.6682389
통도사유치원,경상남도 창원시 성산구 원이대로 774(상남동),35.2236469,128.6846402
가고파유치원,경상남도 창원시 마산회원구 회원남32길 14.가고파유치원 (회원동),35.2176264,128.5624731
비둘기동산유치원,경상남도 창원시 마산회원구 내서읍 호계본동로 54(내서읍),35.2645829,128.5196988
한빛유치원,경상남도 창원시 의창구 신월로6번길 7(신월동),35.2300911,128.68941
해바라기유치원,경상남도 창원시 성산구 대정로 142(대방동. 대방대동아파트),35.2099455,128.7082937
현대예닮유치원,경상남도 창원시 성산구 반송로 159(반림동),35.2361526,128.6754193
현대배꽃유치원,경상남도 창원시 성산구 외동반림로 221(반림동),35.2360136,128.6692499
아람우리꽃들유치원,경상남도 창원시 의창구 읍성로 57-28(서상동),35.2576956,128.6241567
아름다운성아유치원,경상남도 창원시 의창구 북면 천주로 1249(북면),35.3584534,128.6166929
아람유치원,경상남도 창원시 마산합포구 자산서13길 49. 아람유치원 (자산동),35.2022924,128.5611335
세종유치원,경상남도 창원시 마산합포구 월영동남로 3(해운동),35.1784701,128.5645187
온뜨레피움유치원,경상남도 창원시 마산회원구 내서읍 중리상곡로 114(내서읍. 동신아파트),35.2501192,128.5112757
한솔유치원,경상남도 창원시 마산합포구 진동면 요장1길 110(진동면),35.1107176,128.495092
숲속유치원,경상남도 창원시 마산회원구 내서읍 삼계숲길 225(내서읍),35.2301369,128.4943761
에코소명유치원,경상남도 창원시 마산회원구 소계천서길 113(구암동),35.2591099,128.5955401
다솜유치원,경상남도 창원시 마산회원구 양덕옛2길 36. 한일1차@ 다솜유치원 (양덕동),35.2296784,128.5774645
성운유치원,경상남도 창원시 마산회원구 내서읍 함마대로 2694-93(내서읍),35.2538859,128.5082325
밝은별명성유치원,경상남도 창원시 마산회원구 내서읍 삼풍로 93(내서읍),35.2338319,128.5013837
꽃내음풀내음해돋이유치원,경상남도 창원시 마산회원구 내서읍 광려로 183(내서읍),35.2124502,128.5078929
삼계유치원,경상남도 창원시 마산회원구 내서읍 삼계로 127-11(내서읍),35.2327017,128.4912221
하나유치원,경상남도 창원시 의창구 북면 내감1길 15-27(북면)15-27,35.3004064,128.5904833
사과나무유치원,경상남도 창원시 마산합포구 중앙남5길 23(장군동2가),35.1932711,128.5634243
글로벌리더유치원,경상남도 창원시 진해구 청안로 241-25. 청안동,35.100848,128.8008641
코오롱한샘유치원,경상남도 창원시 마산회원구 내서읍 광려천북로 202. 코오롱한샘유치원 (내서읍),35.267633,128.5239012
대방초등학교병설유치원,경상남도 창원시 성산구 대정로 132(대방동),35.2118043,128.7072111
무동초등학교병설유치원,경상남도 창원시 의창구 북면 동곡로 65(북면),35.3477601,128.6070605
북면초등학교병설유치원,경상남도 창원시 의창구 북면 동전로110번길 36북면초등학교 (북면),35.3053502,128.600118
석화유치원,경상남도 창원시 마산회원구 구암반계길 24(구암동),35.2495166,128.6040014
바른손유치원,경상남도 창원시 마산회원구 구암북15길 49(구암동),35.2553066,128.5946683
가포초등학교,경상남도 창원시 마산합포구 가포로 376. 가포초등학교 (가포동),35.1592978,128.5751889
경화초등학교,경상남도 창원시 진해구 경화로38번길 5(경화동.경화초등학교),35.1575616,128.6868026
창원한들초등학교,경상남도 창원시 의창구 소봉로 43(봉림동),35.2539675,128.6703615
진해냉천초등학교,경상남도 창원시 진해구 냉천로 205(자은동),35.1522967,128.7090933
창원남산초등학교,경상남도 창원시 성산구 가음로83번길 7(남양동. 창원남산초등학교),35.2063223,128.7037311
감천초등학교,경상남도 창원시 마산회원구 내서읍 감천로 53. 감천초등학교 (내서읍.감천초등학교),35.2070132,128.5151654
광려초등학교,경상남도 창원시 마산회원구 내서읍 삼계1길 47(내서읍. 광려초등학교),35.2284544,128.5032369
남양초등학교,경상남도 창원시 성산구 가음로13번길 5. 남양초등학교 (남양동.남양초등학교),35.2118257,128.6983038
교동초등학교,경상남도 창원시 마산회원구 무학로 589(회원동. 마산교동초등학교),35.221318,128.5623828
진해남산초등학교,경상남도 창원시 진해구 태평로37번길 17(제황산동. 진해남산초등학교),35.147884,128.662681
남정초등학교,경상남도 창원시 성산구 원이대로878번길 30(가음동)남정초등학교,35.2109882,128.6930375
교방초등학교,경상남도 창원시 마산합포구 교방동1길 63(교방동. 교방초등학교),35.2135134,128.5650217
구산초등학교,경상남도 창원시 마산합포구 구산면 수정3길 8. 구산초등학교 (구산면),35.1202469,128.5793284
구산초등학교구서분교장,경상남도 창원시 마산합포구 구산면 해양관광로 739. 739 (구산면),35.1214202,128.5380712
내동초등학교,경상남도 창원시 성산구 두대로 185. 내동초등학교 (중앙동),35.2259146,128.6624112
구암초등학교,경상남도 창원시 마산회원구 구암북19길 153(구암동. 구암초등학교),35.2581475,128.5943233
대야초등학교,경상남도 창원시 진해구 여좌로84번길 7(여좌동. 대야초등학교),35.1593271,128.6634584
대방초등학교,경상남도 창원시 성산구 대정로 132(대방동. 대방초등학교),35.2114117,128.7068427
대산초등학교,경상남도 창원시 의창구 대산면 진산대로 442-7(대산면. 대산초등학교),35.3400899,128.7105173
내서초등학교,경상남도 창원시 마산회원구 북성로 480(두척동. 내서초등학교),35.2381135,128.5455213
대암초등학교,경상남도 창원시 성산구 창이대로899번길 23(대방동. 대암초등학교),35.205867,128.709421
덕산초등학교,경상남도 창원시 진해구 덕산로46번길 15(자은동.덕산초등학교),35.1457667,128.705059
대원초등학교,경상남도 창원시 의창구 두대로55번길 23(대원동. 대원초등학교),35.2340125,128.6513464
도천초등학교,경상남도 창원시 진해구 충장로 10(도천동. 도천초등학교),35.15255,128.6539317
동부초등학교,경상남도 창원시 진해구 석동로 27. 석동. 동부초등학교 (석동),35.1556338,128.7017604
무학초등학교,경상남도 창원시 마산합포구 자산동8길 6. 무학초등학교 (자산동. 무학초등학교),35.2035979,128.5675217
도계초등학교,경상남도 창원시 의창구 하남천동길 10(도계동. 도계초등학교),35.2592957,128.639503
동산초등학교,경상남도 창원시 성산구 단정로 126(상남동.동산초등학교),35.2140712,128.6902599
반동초등학교,경상남도 창원시 마산합포구 구산면 해양관광로 1460-14(구산면),35.0877125,128.5843272
명곡초등학교,경상남도 창원시 의창구 우곡로159번길 22-11(명서동. 명곡초등학교),35.2435932,128.6449329
명도초등학교,경상남도 창원시 의창구 도계두리길 233(명곡동. 명도초등학교),35.2557349,128.6436743
봉덕초등학교,경상남도 창원시 마산회원구 봉덕1길 14(봉암동. 봉덕초등학교),35.2221796,128.5945465
명서초등학교,경상남도 창원시 의창구 명서로 21. 명서초등학교 (명서동),35.2506771,128.6433467
북성초등학교,경상남도 창원시 마산회원구 석전북1길 3(석전동. 북성초등학교),35.2317331,128.5699673
반송초등학교,경상남도 창원시 성산구 반송로 133. 반송초등학교 (반림동),35.2370681,128.6705945
봉강초등학교,경상남도 창원시 의창구 동읍 동읍로 1131-3(동읍. 봉강초등학교),35.350797,128.6552481
봉림초등학교,경상남도 창원시 의창구 사림로16번길 21(사림동. 봉림초등학교),35.2465506,128.6778081
산호초등학교,경상남도 창원시 마산합포구 회원동북로 53(산호동.산호초등학교),35.2193741,128.5793257
석동초등학교,경상남도 창원시 진해구 석동로 85(석동. 석동초등학교),35.1576773,128.7067063
북면초등학교,경상남도 창원시 의창구 북면 동전로110번길 36(북면. 북면초등학교),35.3053502,128.600118
삼계초등학교,경상남도 창원시 마산회원구 내서읍 삼계로 36(내서읍. 삼계초등학교),35.2323338,128.5000496
북면초등학교승산분교장,경상남도 창원시 의창구 북면 구룡로312번길 7(북면초등학교 승산분교장),35.3053056,128.6221157
사파초등학교,경상남도 창원시 성산구 원이대로773번길 27사파동. 사파초등학교,35.2193185,128.6972552
상남초등학교,경상남도 창원시 마산합포구 합포서13길 20. 상남초등학교 (상남동),35.2125693,128.5771595
상일초등학교,경상남도 창원시 마산회원구 내서읍 광려천서로 21(내서읍. 상일초등학교),35.2443142,128.5069985
사화초등학교,경상남도 창원시 의창구 반계로80번길 7(팔용동. 사화초등학교),35.2521703,128.6164071
석전초등학교,경상남도 창원시 마산회원구 석전동로 8(석전동),35.2322855,128.5762148
안청초등학교,경상남도 창원시 진해구 안골로 303(안골동. 안청초등학교),35.0995313,128.8070021
상북초등학교,경상남도 창원시 의창구 지귀로60번길 13-13. 상북초등학교 (봉곡동),35.2464555,128.6530403
성호초등학교,경상남도 창원시 마산합포구 성호동4길 21(성호동.성호초등학교),35.2087641,128.5714657
마산신월초등학교,경상남도 창원시 마산합포구 월영마을로 40(월영동. 마산신월초등학교),35.1707756,128.5565241
성주초등학교,경상남도 창원시 성산구 가음정로 127(가음동. 성주초등학교),35.2053779,128.6979539
소답초등학교,경상남도 창원시 의창구 의창대로317번길 41(소답동. 소답초등학교),35.2651536,128.6288915
안계초등학교,경상남도 창원시 마산회원구 내서읍 삼계숲길 246(내서읍),35.2314203,128.4944476
신등초등학교,경상남도 창원시 의창구 대산면 주남로 394. 19-3 (대산면),35.3202483,128.6997361
양덕초등학교,경상남도 창원시 마산회원구 양덕동12길 86(양덕동. 양덕초등학교),35.2334559,128.5881301
신방초등학교,경상남도 창원시 의창구 동읍 동읍로 121-11(동읍. 신방초등학교),35.2870345,128.6781202
창원신월초등학교,경상남도 창원시 의창구 신월로72번길 12(신월동. 창원신월초등학교),35.2258476,128.6932316
안남초등학교,경상남도 창원시 성산구 가양로 158(대방동. 안남초등학교),35.2093776,128.7102582
안민초등학교,경상남도 창원시 성산구 안민로79번길 6. 안민초등학교 (안민동. 안민초등학교),35.1871108,128.6878489
양곡초등학교,경상남도 창원시 성산구 양곡길 102(신촌동. 양곡초등학교),35.2020992,128.626794
온천초등학교,경상남도 창원시 의창구 북면 신리길30번길 17(북면. 온천초등학교),35.3490814,128.6054864
완월초등학교,경상남도 창원시 마산합포구 고운로 201. 완월초등학교 (완월동.완월초등학교),35.2001538,128.5631056
외동초등학교,경상남도 창원시 성산구 토월로43번길 14(상남동. 외동초등학교),35.2163721,128.6813594
용마초등학교,경상남도 창원시 마산합포구 산호남로 50(산호동. 용마초등학교),35.215458,128.5845754
용원초등학교,경상남도 창원시 진해구 용원로78번길 11(용원동. 용원초등학교),35.097726,128.8178434
용남초등학교,경상남도 창원시 의창구 용호로 65(용호동. 용남초등학교),35.2357073,128.6801492
우산초등학교,경상남도 창원시 마산합포구 진동면 미더덕로 382. 우산초등학교 (진동면),35.1049413,128.4790049
월성초등학교,경상남도 창원시 마산합포구 완월남1길 17(완월동.월성초등학교),35.1955988,128.5603282
용지초등학교,경상남도 창원시 성산구 원이대로538번길 24(중앙동.용지초등학교),35.2292357,128.6722057
웅동초등학교,경상남도 창원시 진해구 마천로 29(마천동. 웅동초등학교),35.1266388,128.7829203
웅천초등학교,경상남도 창원시 진해구 웅천동로 33. 웅천초등학교 (남문동. 웅천초등학교),35.1039594,128.7557198
월영초등학교,경상남도 창원시 마산합포구 반월북1길 41(장군동1가.월영초등학교),35.1913322,128.5625275
용호초등학교,경상남도 창원시 의창구 외동반림로 170. 용호초등학교 (용호동),35.2337637,128.675789
우암초등학교,경상남도 창원시 의창구 대산면 우암로 35(대산면. 우암초등학교),35.334141,128.730614
웅남초등학교,경상남도 창원시 성산구 단정로 75(상남동),35.2184408,128.6880747
월포초등학교,경상남도 창원시 마산합포구 월영북15길 35(대내동. 월포초등학교),35.1827391,128.5575788
자은초등학교,경상남도 창원시 진해구 자은로88번길 41(자은동. 자은초등학교),35.1491788,128.7115124
중리초등학교,경상남도 창원시 마산회원구 내서읍 호계안길 22(내서읍. 중리초등학교),35.2555631,128.5201081
제황초등학교,경상남도 창원시 진해구 제황로 32(제황산동. 제황초등학교),35.1481897,128.6696525
진동초등학교,경상남도 창원시 마산합포구 진동면 삼진의거대로 661-22(진동면. 진동초등학교),35.1186425,128.4901152
진전초등학교,경상남도 창원시 마산합포구 진전면 팔의사로 727(진전면),35.1102363,128.415113
유목초등학교,경상남도 창원시 성산구 반송로29번길 15(반지동. 유목초등학교),35.2440393,128.6631228
팔룡초등학교,경상남도 창원시 마산회원구 학교단지로 31. 팔룡초등학교 (합성동),35.2421901,128.5939671
일동초등학교,경상남도 창원시 의창구 대산면 대산북로 461(대산면. 일동초등학교),35.368525,128.6879782
자여초등학교,경상남도 창원시 의창구 동읍 자여로 135(동읍. 자여초등학교),35.2720089,128.7057782
진해중앙초등학교,경상남도 창원시 진해구 태백서로14번길 23(태백동. 중앙초등학교),35.1547723,128.6752629
하북초등학교,경상남도 창원시 마산합포구 진북면 지산5길 36(진북면. 하북초등학교),35.1161065,128.4696443
안골포초등학교,경상남도 창원시 진해구 안청북로 30(청안동),35.1036424,128.8061663
합성초등학교,경상남도 창원시 마산회원구 합성북16길 75(합성동. 합성초등학교),35.2418715,128.5819638
합포초등학교,경상남도 창원시 마산합포구 허당로 73(산호동),35.2123533,128.5841391
창원초등학교,경상남도 창원시 의창구 읍성로 5-1(서상동.창원초등학교),35.2657375,128.619111
해운초등학교,경상남도 창원시 마산합포구 월영남로 24(월영동 605-1)(월영동. 해운초등학교),35.1767954,128.5578289
창원상남초등학교,경상남도 창원시 성산구 토월로 140. 창원상남초등학교 (상남동. 창원상남초등학교),35.2215499,128.6894675
풍호초등학교,경상남도 창원시 진해구 풍호로 80(자은동. 풍호초등학교),35.1402297,128.7120795
현동초등학교,경상남도 창원시 마산합포구 현동6길 12(현동. 현동초등학교),35.1473544,128.556802
토월초등학교,경상남도 창원시 성산구 비음로4번길 33-11(사파동),35.2264197,128.6989835
평산초등학교,경상남도 창원시 의창구 사화로104번길 17(팔용동. 평산초등학교),35.2507321,128.6168214
하천초등학교,경상남도 창원시 의창구 북면 하천로 145(북면. 하천초등학교),35.3696842,128.6041305
호계초등학교,경상남도 창원시 마산회원구 내서읍 광려천북로 182(내서읍. 호계초등학교),35.2657009,128.5223298
화양초등학교,경상남도 창원시 의창구 동읍 백월로 524. 화양초등학교 (동읍),35.305393,128.6522888
삼정자초등학교,경상남도 창원시 성산구 외리로34번길 8(삼정자동.삼정자초등학교),35.2006842,128.709453
중동초등학교,경상남도 창원시 의창구 의창대로238번길 14중동초등학교,35.2598701,128.6231261
회원초등학교,경상남도 창원시 마산회원구 회원남로 51(회원동),35.2198448,128.5667328
의창초등학교,경상남도 창원시 의창구 중동남로 85(중동),35.2550279,128.6273054
마산중앙초등학교,경상남도 창원시 마산회원구 팔용로 280(구암동. 마산중앙초등학교),35.2484544,128.6025728
장복초등학교,경상남도 창원시 진해구 진해대로728번길 21(석동. 장복초등학교),35.157858,128.695151
전안초등학교,경상남도 창원시 마산회원구 내서읍 광려로 100(내서읍. 전안초등학교),35.2177895,128.5023608
장천초등학교,경상남도 창원시 진해구 충장로 719(장천동. 장천초등학교),35.1263596,128.7072607
가고파초등학교,경상남도 창원시 마산회원구 삼호로 110(양덕동. 가고파초등학교),35.2257109,128.5803008
무동초등학교,경상남도 창원시 의창구 북면 동곡로 65(북면),35.3477601,128.6070605
감계초등학교,경상남도 창원시 의창구 북면 감계로140번길 51(북면),35.2972897,128.5885464
진해신항초등학교,경상남도 창원시 진해구 신항동로 158. 진해신항초등학교,35.089023,128.810752
경원중학교,경상남도 창원시 성산구 두대로 195(중앙동. 경원중학교),35.2253002,128.663083
감계중학교,경상남도 창원시 의창구 북면 감계로 220. 감계중학교 (북면),35.3007276,128.5873448
구산중학교구남분교장,경상남도 창원시 마산합포구 구산면 이순신로 7(구산면. 구남중학교),35.0868065,128.5868286
남산중학교,경상남도 창원시 성산구 가음정로 157(가음동. 남산중학교),35.2044058,128.6993149
대방중학교,경상남도 창원시 성산구 가양로 133(대방동.대방중학교),35.2097907,128.7076445
명서중학교,경상남도 창원시 의창구 명지로 54(명서동. 명서중학교),35.2515403,128.6441038
구암중학교,경상남도 창원시 마산회원구 구암북11길 26. 구암중학교 (구암동),35.2557754,128.5969317
내서중학교,경상남도 창원시 마산회원구 내서읍 광려천서로 35(내서읍.내서중학교),35.245788,128.507875
반림중학교,경상남도 창원시 성산구 외동반림로 237(반림동. 반림중학교),35.2392152,128.6777235
삼정자중학교,경상남도 창원시 성산구 외리로34번길 32(성주동. 삼정자중학교),35.2012397,128.7119805
마산동중학교,경상남도 창원시 마산회원구 회원북7길 40(회원동.마산동중학교),35.2210959,128.5682156
반송여자중학교,경상남도 창원시 성산구 반송로 168(반림동. 반송여자중학교),35.2355842,128.6754269
동진여자중학교,경상남도 창원시 진해구 진해대로982번길 26(풍호동. 동진여중),35.1421984,128.7040455
마산서중학교,경남 창원시 마산합포구 월영남로6(월영동.마산서중학교),35.1785174,128.5574122
반송중학교,경상남도 창원시 성산구 반송로 182(반림동. 반송중학교),35.2355842,128.6754269
봉곡중학교,경상남도 창원시 의창구 봉곡로23번길 6(봉곡동. 봉곡중학교),35.2486227,128.6617846
동진중학교,경상남도 창원시 진해구 덕산로46번길 25(자은동.동진중학교),35.1439617,128.7060892
마산여자중학교,경상남도 창원시 마산회원구 무학로 587(회원동. 마산여자중학교),35.2212917,128.5609372
봉림중학교,경상남도 창원시 의창구 사림로16번길 15(사림동),35.2467442,128.6773344
안골포중학교,경상남도 창원시 진해구 안청남로 29(청안동),35.1025178,128.8051659
사파중학교,경상남도 창원시 성산구 신사로 155(사파동),35.2188138,128.7005242
마산중학교,경상남도 창원시 마산합포구 심온길 49(자산동. 마산중학교),35.2035628,128.5616227
삼계중학교,경상남도 창원시 마산회원구 내서읍 삼계9길 40(내서읍. 삼계중학교),35.2333432,128.4986107
신월중학교,경상남도 창원시 의창구 신월로37번길 12신월중학교 (신월동. 신월중학교),35.22877,128.693971
양덕여자중학교,경상남도 창원시 마산회원구 학교단지로 21(합성동. 양덕여자중학교),35.243427,128.5945737
석동중학교,경상남도 창원시 진해구 석동로 40(석동. 석동중학교),35.1541896,128.7037881
안남중학교,경상남도 창원시 성산구 창이대로899번길 13(대방동),35.205523,128.7080286
용원중학교,경상남도 창원시 진해구 용원로77번길 16(용원동. 용원중학교),35.0996537,128.8180112
양곡중학교,경상남도 창원시 성산구 신촌로134번길 12(신촌동. 양곡중학교),35.1981376,128.6271091
양덕중학교,경상남도 창원시 마산회원구 학교단지로 47(합성동. 양덕중학교),35.2422328,128.5952958
진전중학교,경상남도 창원시 마산합포구 진전면 월안로 23(진전면),35.1043049,128.4095315
웅남중학교,경상남도 창원시 성산구 단정로98번길 8(상남동. 웅남중학교),35.2159388,128.6885557
창덕중학교,경상남도 창원시 의창구 동읍 의창대로900번길 12(동읍.창덕중학교),35.2776192,128.6892028
창북중학교,경상남도 창원시 의창구 북면 무동서로 8. 창북중학교 (북면),35.3168914,128.5805682
합포여자중학교,경상남도 창원시 마산회원구 회성남11길 27. 합포여자중학교,35.2321222,128.5617159
진해중학교,경상남도 창원시 진해구 여좌로 98(여좌동. 진해중학교),35.1600719,128.6644932
진해여자중학교,경상남도 창원시 진해구 여좌남로 25(여좌동. 진해여자중학교),35.1562163,128.6590144
합포중학교,경상남도 창원시 마산합포구 산호남10길 18(산호동. 합포중학교),35.2157357,128.5853808
창원중앙중학교,경상남도 창원시 성산구 반지로3번길 14(반지동. 창원중앙중학교),35.2402064,128.6584567
창원상남중학교,경상남도 창원시 성산구 동산로55번길 9(가음정동. 창원상남중학교),35.2147932,128.6852048
도계중학교,경상남도 창원시 의창구 원이대로56번길 19-15(도계동),35.2556619,128.6342337
창원동중학교,경상남도 창원시 의창구 동읍로 189(동읍. 창원동중학교),35.2912562,128.6751481
해운중학교,경상남도 창원시 마산합포구 월영동남로 16-1(해운동. 해운중학교),35.1775804,128.5652987
토월중학교,경상남도 창원시 의창구 원이대로 687(신월동. 토월중학교),35.22357,128.6888154
호계중학교,경상남도 창원시 마산회원구 내서읍 호계본동로 107(내서읍. 호계중학교),35.2665895,128.5147472
광려중학교,경상남도 창원시 마산회원구 내서읍 광려로 108(내서읍. 광려중학교),35.217123,128.503194
팔룡중학교,경상남도 창원시 의창구 사화로104번길 3(팔용동. 팔룡중학교),35.2516487,128.6175991
명곡여자중학교,경상남도 창원시 의창구 우곡로159번길 32(명서동. 명곡여자중학교),35.2432891,128.6449301
안민중학교,경상남도 창원시 성산구 안민로160번길 11. 안민중학교 (안민동),35.1836026,128.6935105
창원대산중학교,경상남도 창원시 의창구 대산면 진산대로 380(대산면. 창원대산중학교),35.3341498,128.7103439
마산무학여자중학교,경상남도 창원시 마산회원구 회원동33길 17. 마산무학여자중학교 (회원동),35.222346,128.575687
창원남중학교,경상남도 창원시 성산구 창원대로 813(외동. 창원남중학교),35.2139599,128.6801498
마산의신여자중학교,경상남도 창원시 마산합포구 천하장사로 21. 51278 (교방동. 마산의신여자중학교),35.211375,128.566049
마산제일여자중학교,경상남도 창원시 마산합포구 고운로 65. 마산제일여자중학교 (문화동),35.1884309,128.5568982
웅동중학교,경상남도 창원시 진해구 남의로116번길 50(두동),35.1127362,128.7960297
창원여자중학교,경상남도 창원시 의창구 팔용로 487. 창원여자중학교 (팔용동),35.2596342,128.6160127
마산중앙중학교,경상남도 창원시 마산회원구 학교단지로 53-1마산중앙중학교(합성동),35.2424767,128.5969018
마산삼진중학교,경상남도 창원시 마산합포구 진동면 성산길 51. 마산삼진중학교 (진동면),35.1144126,128.4888926
진해남중학교,경상남도 창원시 진해구 병암북로 9. 781-22 (경화동),35.1608323,128.6901467
성지여자중학교,경상남도 창원시 마산합포구 완월남로 20(완월동)성지여자중학교,35.1984322,128.5599143
창원중학교,경상남도 창원시 의창구 도계로107번길 10(도계동.창원중학교),35.2556765,128.64193
창신중학교,경상남도 창원시 마산회원구 봉암북7길 11(봉암동),35.2243423,128.5974006
진해냉천중학교,경상남도 창원시 진해구 냉천로 219(자은동),35.1522967,128.7090933
구산중학교,경상남도 창원시 마산합포구 현동9길 23(현동. 구산중학교),35.1193662,128.581151
진해신항중학교,경상남도 창원시 진해구 신항동로 161. 진해신항중학교,35.0882998,128.8104181
